{
  "parks": [
    {
      "city": "Valencia",
      "mapId": "f1a16e58-473a-46d8-9d0c-dcf3e5a9fa9e",
      "parkDistance": "10 km",
      "parkId": "SFMM",
      "parkLocation": {
        "latitude": 34.4251,
        "longitude": -118.5971
      },
      "parkName": "Six Flags Magic Mountain",
      "state": "California",
      "parkImageUrl": "https://unsplash.com/photos/people-riding-carnival-ride-under-clear-blue-sky-during-daytime-MgRgzB58D44"
    },
    {
      "city": "Jackson",
      "mapId": "dc377529-49c2-4a38-ae56-8e19787e8dfd",
      "parkDistance": "20 km",
      "parkId": "SFGA",
      "parkLocation": {
        "latitude": 40.1489,
        "longitude": -74.4409
      },
      "parkName": "Six Flags Great Adventure",
      "state": "New Jersey",
      "parkImageUrl": "https://unsplash.com/photos/people-riding-carnival-ride-under-clear-blue-sky-during-daytime-MgRgzB58D44"
    },
    {
      "city": "Arlington",
      "mapId": "2c4347c9-4b0c-4246-92b7-f9c3aea65175",
      "parkDistance": "15 km",
      "parkId": "SFTX",
      "parkLocation": {
        "latitude": 32.7555,
        "longitude": -97.0813
      },
      "parkName": "Six Flags Over Texas",
      "state": "Texas",
      "parkImageUrl": "https://unsplash.com/photos/people-riding-carnival-ride-under-clear-blue-sky-during-daytime-MgRgzB58D44"
    },
    {
      "city": "Austell",
      "mapId": "ab9acde7-5531-4bd4-9682-5abfa5ee082d",
      "parkDistance": "12 km",
      "parkId": "SFGA",
      "parkLocation": {
        "latitude": 33.7677,
        "longitude": -84.5555
      },
      "parkName": "Six Flags Over Georgia",
      "state": "Georgia",
      "parkImageUrl": "https://unsplash.com/photos/people-riding-carnival-ride-under-clear-blue-sky-during-daytime-MgRgzB58D44"
    },
    {
      "city": "Sandusky",
      "mapId": "7dcb8c9c-68ee-4eb4-ad33-59d31522354c",
      "parkDistance": "8 km",
      "parkId": "CP",
      "parkLocation": {
        "latitude": 41.4821,
        "longitude": -82.6835
      },
      "parkName": "Cedar Point",
      "state": "Ohio",
      "parkImageUrl": "https://unsplash.com/photos/people-riding-carnival-ride-under-clear-blue-sky-during-daytime-MgRgzB58D44"
    },
    {
      "city": "Santa Clara",
      "mapId": "a6755e57-8bc8-4bd6-a6bc-7c35db353443",
      "parkDistance": "18 km",
      "parkId": "CG",
      "parkLocation": {
        "latitude": 37.3989,
        "longitude": -121.9752
      },
      "parkName": "California's Great America",
      "state": "California",
      "parkImageUrl": "https://unsplash.com/photos/people-riding-carnival-ride-under-clear-blue-sky-during-daytime-MgRgzB58D44"
    },
    {
      "city": "Doswell",
      "mapId": "820c7e54-4257-447b-a1fc-bb61e11b84d3",
      "parkDistance": "22 km",
      "parkId": "KD",
      "parkLocation": {
        "latitude": 37.8386,
        "longitude": -77.4449
      },
      "parkName": "Kings Dominion",
      "state": "Virginia",
      "parkImageUrl": "https://unsplash.com/photos/people-riding-carnival-ride-under-clear-blue-sky-during-daytime-MgRgzB58D44"
    },
    {
      "city": "Charlotte",
      "mapId": "c89b333d-8a73-45a8-82fe-6780e7abefb0",
      "parkDistance": "14 km",
      "parkId": "CW",
      "parkLocation": {
        "latitude": 35.1046,
        "longitude": -80.9393
      },
      "parkName": "Carowinds",
      "state": "North Carolina",
      "parkImageUrl": "https://unsplash.com/photos/people-riding-carnival-ride-under-clear-blue-sky-during-daytime-MgRgzB58D44"
    },
    {
      "city": "Mason",
      "mapId": "a60daa80-99bd-4522-981f-0c0753ef6603",
      "parkDistance": "10 km",
      "parkId": "KI",
      "parkLocation": {
        "latitude": 39.3427,
        "longitude": -84.2686
      },
      "parkName": "Kings Island",
      "state": "Ohio",
      "parkImageUrl": "https://unsplash.com/photos/people-riding-carnival-ride-under-clear-blue-sky-during-daytime-MgRgzB58D44"
    }
  ]
}
