{
  "parks": [
    {
      "city": "Valencia",
      "mapId": "SFMM001",
      "parkDistance": "10 km",
      "parkId": "SFMM",
      "parkLocation": {
        "latitude": 34.4251,
        "longitude": -118.5971
      },
      "parkName": "Six Flags Magic Mountain",
      "state": "California",
      "parkImage": "http://example.com/sfmm.jpg"
    },
    {
      "city": "Jackson",
      "mapId": "SFGA002",
      "parkDistance": "20 km",
      "parkId": "SFGA",
      "parkLocation": {
        "latitude": 40.1489,
        "longitude": -74.4409
      },
      "parkName": "Six Flags Great Adventure",
      "state": "New Jersey",
      "parkImage": "http://example.com/sfga.jpg"
    },
    {
      "city": "Arlington",
      "mapId": "SFTX003",
      "parkDistance": "15 km",
      "parkId": "SFTX",
      "parkLocation": {
        "latitude": 32.7555,
        "longitude": -97.0813
      },
      "parkName": "Six Flags Over Texas",
      "state": "Texas",
      "parkImage": "http://example.com/sftx.jpg"
    },
    {
      "city": "Austell",
      "mapId": "SFGA004",
      "parkDistance": "12 km",
      "parkId": "SFGA",
      "parkLocation": {
        "latitude": 33.7677,
        "longitude": -84.5555
      },
      "parkName": "Six Flags Over Georgia",
      "state": "Georgia",
      "parkImage": "http://example.com/sfga2.jpg"
    },
    {
      "city": "Sandusky",
      "mapId": "CP001",
      "parkDistance": "8 km",
      "parkId": "CP",
      "parkLocation": {
        "latitude": 41.4821,
        "longitude": -82.6835
      },
      "parkName": "Cedar Point",
      "state": "Ohio",
      "parkImage": "http://example.com/cp.jpg"
    },
    {
      "city": "Santa Clara",
      "mapId": "CG002",
      "parkDistance": "18 km",
      "parkId": "CG",
      "parkLocation": {
        "latitude": 37.3989,
        "longitude": -121.9752
      },
      "parkName": "California's Great America",
      "state": "California",
      "parkImage": "http://example.com/cg.jpg"
    },
    {
      "city": "Doswell",
      "mapId": "KD003",
      "parkDistance": "22 km",
      "parkId": "KD",
      "parkLocation": {
        "latitude": 37.8386,
        "longitude": -77.4449
      },
      "parkName": "Kings Dominion",
      "state": "Virginia",
      "parkImage": "http://example.com/kd.jpg"
    },
    {
      "city": "Charlotte",
      "mapId": "CW004",
      "parkDistance": "14 km",
      "parkId": "CW",
      "parkLocation": {
        "latitude": 35.1046,
        "longitude": -80.9393
      },
      "parkName": "Carowinds",
      "state": "North Carolina",
      "parkImage": "http://example.com/cw.jpg"
    },
    {
      "city": "Mason",
      "mapId": "KI005",
      "parkDistance": "10 km",
      "parkId": "KI",
      "parkLocation": {
        "latitude": 39.3427,
        "longitude": -84.2686
      },
      "parkName": "Kings Island",
      "state": "Ohio",
      "parkImage": "http://example.com/ki.jpg"
    }
  ]
}
